{"mountains":[
        {
          "name":"Adams",
          "lat":"44.3203",
          "long":"-71.2909",
          "map":"1",
          "zindex":"4", "image":""
        },
{"name":"Bond", "lat":"44.1528", "long":"-71.5312", "map":"1","image":"","zindex":"4"},
{"name":"Bondcliff", "lat":"44.14080",  "long":"-71.5409", "map":"1","image":"","zindex":"4"},
{"name":"Bond West Peak", "lat":"44.15473", "long":"-71.54351", "map":"1","image":"","zindex":"4"},
{"name":"Cabot", "lat":"44.5062", "long":"-71.4156", "map":"1","image":"","zindex":"4"},
{"name":"Cannon", "lat":"44.1565", "long":"-71.6984", "map":"1","image":"","zindex":"4", "completed":"12/1/2013"},
{"name":"Carrigain","lat":"44.0945", "long":"-71.4474", "map":"1","image":"","zindex":"4"},
{"name":"Carter Dome", "lat":"44.2673", "long":"-71.1790", "map":"1","image":"","zindex":"4", "completed":"11/2/2013"},
{"name":"Carter Middle", "lat":"44.3031", "long":"-71.1673", "map":"1","image":"","zindex":"4", "completed":"11/2/2013"},
{"name":"Carter South", "lat":"44.2898", "long":"-71.1762", "map":"1","image":"","zindex":"4", "completed":"11/2/2013"},
{"name":"Eisenhower", "lat":"44.2403", "long":"-71.3504", "map":"1","image":"","zindex":"4", "completed":"10/20/2013"},
{"name":"Field", "lat":"44.1962", "long":"-71.4345", "map":"1","image":"","zindex":"4", "completed":"11/18/2012"},
{"name":"Flume", "lat":"44.1090", "long":"-71.6279", "map":"1","image":"","zindex":"4", "completed":"2/2/2013"},
{"name":"Galehead", "lat":"44.1853", "long":"-71.5737", "map":"1","image":"","zindex":"4"},
{"name":"Garfield", "lat":"44.1870", "long":"-71.6109", "map":"1","image":"","zindex":"4"},
{"name":"Hale", "lat":"44.2217", "long":"-71.5120", "map":"1","image":"","zindex":"4"},
{"name":"Hancock", "lat":"44.0837", "long":"-71.4937", "map":"1","image":"","zindex":"4", "completed":"10/14/2012"},
{"name":"South Hancock", "lat":"44.0840", "long":"-71.4936", "map":"1","image":"","zindex":"4", "completed":"10/14/2012"},
{"name":"Isolation", "lat":"44.2148", "long":"-71.3092", "map":"1","image":"","zindex":"4"},
{"name":"Jackson", "lat":"44.2031", "long":"-71.3742", "map":"1","image":"","zindex":"4"},
{"name":"Jefferson", "lat":"44.3045", "long":"-71.3176", "map":"1","image":"","zindex":"4"},
{"name":"North Kinsman", "lat":"44.1550645", "long":"-71.7467518", "map":"1","image":"","zindex":"4", "completed":"8/3/2013"},
{"name":"South Kinsman", "lat":"44.1230", "long":"-71.7367", "map":"1","image":"","zindex":"4", "completed":"8/3/2013"},
{"name":"Lafayette", "lat":"44.1607", "long":"-71.6445", "map":"1","image":"","zindex":"4"},
{"name":"Liberty", "lat":"44.1159", "long":"-71.6420", "map":"1","image":"","zindex":"4", "completed":"2/2/2013"},
{"name":"Lincoln", "lat":"44.1490", "long":"-71.6445", "map":"1","image":"","zindex":"4"},
{"name":"Madison", "lat":"44.3284", "long":"-71.2779", "map":"1","image":"","zindex":"4"},
{"name":"Monroe", "lat":"44.2556", "long":"-71.3220", "map":"1","image":"","zindex":"4"},
{"name":"Moosilauke", "lat":"44.0245", "long":"-71.8309", "map":"1","image":"","zindex":"4", "completed":"10/21/2012"},
{"name":"Moriah", "lat":"44.3403", "long":"-71.1315", "map":"1","image":"","zindex":"4"},
{"name":"Osceola", "lat":"44.0015", "long":"-71.5359", "map":"1","image":"","zindex":"4", "completed":"10/21/2012"},
{"name":"East Osceola", "lat":"44.0057", "long":"-71.5202", "map":"1","image":"","zindex":"4", "completed":"10/21/2012"},
{"name":"Owls Head","lat":"44.1444", "long":"-71.6050", "map":"1","image":"","zindex":"4"},
{"name":"Passaconaway", "lat":"43.9548", "long":"-71.3815", "map":"1","image":"","zindex":"4"},
{"name":"Pierce", "lat":"44.2265", "long":"-71.3659", "map":"1","image":"","zindex":"4", "completed":"10/20/2013"},
{"name":"Tecumseh", "lat":"43.9673", "long":"-71.5581", "map":"1","image":"","zindex":"4", "completed":"10/7/2012"},
{"name":"Tom", "lat":"44.2103", "long":"-71.4459", "map":"1","image":"","zindex":"4", "completed":"11/18/2012"},
{"name":"Tripyramid, Middle", "lat":"43.964662", "long":"-71.440101", "map":"1","image":"","zindex":"4"},
{"name":"Tripyramid, North",  "lat":"43.96830",  "long":"-71.44", "map":"1","image":"","zindex":"4"},
{"name":"Twin, North", "lat":"44.2026", "long":"-71.5579", "map":"1","image":"","zindex":"4"},
{"name":"Twin, South", "lat":"44.1876", "long":"-71.5548", "map":"1","image":"","zindex":"4"},
{"name":"Washington", "lat":"44.2706", "long":"-71.3033", "map":"1","image":"","zindex":"4"},
{"name":"Waumbek", "lat":"44.4328", "long":"-71.4170", "map":"1","image":"","zindex":"4"},
{"name":"Whiteface", "lat":"43.9340", "long":"-71.4059", "map":"1","image":"","zindex":"4"},
{"name":"Wildcat", "lat":"44.2590", "long":"-71.2015", "map":"1","image":"","zindex":"4"},
{"name":"Wildcat 'D' Peak", "lat":"44.2492", "long":"-71.2236","map":"1", "image":"","zindex":"4"},
{"name":"Wiley", "lat":"44.1837", "long":"-71.4215", "map":"1","image":"","zindex":"4", "completed":"11/18/2012"},
{"name":"Zealand", "lat":"44.1797", "long":"-71.5213", "map":"1","image":"","zindex":"4"}
]}
